stop_id,stop_code,stop_name,stop_desc,stop_lat,stop_lon,zone_id,stop_url,location_type,platform_code,parent_station
g002_01,,あら町銀行前,,36.323401,139.00729,g002_01,,0,,
g002_02,,あら町銀行前,,36.323529,139.007405,g002_02,,0,,
g003_01,,連雀町,,36.325239,139.007136,g003_01,,0,,
g003_02,,連雀町,,36.325379,139.006986,g003_02,,0,,
g004_01,,田町,,36.327601,139.00677,g004_01,,0,,
g004_02,,田町,,36.327904,139.006562,g004_02,,0,,
g005_01,,本町三丁目,,36.331139,139.006232,g005_01,,0,,
g005_02,,本町三丁目,,36.331596,139.006589,g005_02,,0,,
g006_01,,総合文化センター前,,36.332651,139.007045,g006_01,,0,,
g006_02,,総合文化センター前,,36.332756,139.006924,g006_02,,0,,
g007_01,,高砂町,,36.333523,139.008241,g007_01,,0,,
g007_02,,高砂町,,36.333382,139.007937,g007_02,,0,,
g008_01,,芝塚,,36.334114,139.013442,g008_01,,0,,
g008_02,,芝塚,,36.335248,139.013216,g008_02,,0,,
g009_01,,飯玉町,,36.338929,139.014028,g009_01,,0,,
g009_02,,飯玉町,,36.33843,139.013562,g009_02,,0,,
g010_01,,島前,,36.341062,139.016946,g010_01,,0,,
g010_02,,島前,,36.341831,139.017377,g010_02,,0,,
g011_01,,島貝沢,,36.344675,139.019468,g011_01,,0,,
g011_02,,島貝沢,,36.344685,139.019597,g011_02,,0,,
g012_01,,貝沢,,36.347451,139.021613,g012_01,,0,,
g012_02,,貝沢,,36.348176,139.021982,g012_02,,0,,
g013_01,,井野川橋,,36.350373,139.023474,g013_01,,0,,
g013_02,,井野川橋,,36.350545,139.023721,g013_02,,0,,
g014_01,,井野駅入口,,36.354071,139.026166,g014_01,,0,,
g014_02,,井野駅入口,,36.354311,139.026464,g014_02,,0,,
g015_01,,井野,,36.356168,139.027732,g015_01,,0,,
g015_02,,井野,,36.357114,139.028593,g015_02,,0,,
g016_01,,中尾中入口,,36.361826,139.031725,g016_01,,0,,
g016_02,,中尾中入口,,36.361878,139.031626,g016_02,,0,,
g017_01,,日高病院,,36.363098,139.028552,g017_01,,0,,
g018_01,,日高,,36.36542,139.035006,g018_01,,0,,
g018_02,,日高,,36.365522,139.034946,g018_02,,0,,
g019_01,,プレイランド日高,,36.366864,139.036466,g019_01,,0,,
g019_02,,プレイランド日高,,36.367586,139.037073,g019_02,,0,,
g020_01,,染谷橋,,36.36912,139.03882,g020_01,,0,,
g020_02,,染谷橋,,36.369731,139.039291,g020_02,,0,,
g021_01,,江田,,36.371952,139.041624,g021_01,,0,,
g021_02,,江田,,36.372172,139.042009,g021_02,,0,,
g022_01,,フォレストモール新前橋,,36.3738,139.043766,g022_01,,0,,
g022_02,,フォレストモール新前橋,,36.374862,139.044644,g022_02,,0,,
g023_01,,新前橋駅入口,,36.377204,139.047336,g023_01,,0,,
g023_02,,新前橋駅入口,,36.377547,139.047492,g023_02,,0,,
g024_01,２番のりば,新前橋駅,,36.378849,139.047876428571,g024_01,,0,2,
g025_01,,滝川橋,,36.380371,139.05066,g025_01,,0,,
g025_02,,滝川橋,,36.380492,139.050648,g025_02,,0,,
g026_01,,石倉,,36.384018,139.053933,g026_01,,0,,
g026_02,,石倉,,36.384045,139.053774,g026_02,,0,,
g027_01,,上石倉,,36.386899,139.055192,g027_01,,0,,
g027_02,,上石倉,,36.387173,139.05538,g027_02,,0,,
g028_01,,中央病院入口,,36.387324,139.061116,g028_01,,0,,
g028_02,,中央病院入口,,36.387515,139.06049,g028_02,,0,,
g029_01,,県庁前,,36.389377,139.062121,g029_01,,0,4,
g029_02,,県庁前,,36.389502,139.061903,g029_02,,0,2,
g030_01,,市役所・合庁前,,36.390638,139.064415,g030_01,,0,1,
g030_02,,市役所・合庁前,,36.390722,139.063378,g030_02,,0,2,
g031_01,,日銀前,,36.391022,139.066322,g031_01,,0,,
g032_01,,本町,,36.390096,139.070079,g032_01,,0,,
g032_02,,本町,,36.390218,139.069406,g032_02,,0,,
g033_01,,表町,,36.387144,139.072428,g033_01,,0,,
g033_02,,表町,,36.387266,139.072644,g033_02,,0,,
g035_01,降車場所,前橋駅,,36.38373,139.072877,g035_01,,0,,
g035_04,５番のりば,前橋駅,,36.383986,139.072186,g035_04,,0,5,
g035_05,６番のりば,前橋駅,,36.384114,139.072383,g035_05,,0,6,
g158_01,,Gメッセ群馬,,36.3180989414675,139.023034572601,g158_01,,0,,
g037_01,,あら町,,36.322353,139.00863,g037_01,,0,,
g038_01,降車場所,高崎駅,,36.322113,139.011851,g038_01,,0,,
g038_02,１番のりば,高崎駅,,36.322281,139.011259,g038_02,,0,1,
g063_01,,伊勢崎市民病院北,,36.323901,139.17804,g063_01,,0,,
g098_01,,弓町,,36.328244,139.010042,g098_01,,0,,
g099_01,,東町十字路,,36.328125,139.015799,g099_01,,0,,
g099_02,,東町十字路,,36.328173,139.014852142857,g099_02,,0,,
g100_01,,江木町十字路,,36.32792,139.020199,g100_01,,0,,
g100_02,,江木町十字路,,36.328148,139.018931,g100_02,,0,,
g101_01,,江木町東,,36.327584,139.022912,g101_01,,0,,
g101_02,,江木町東,,36.3277,139.022657,g101_02,,0,,
g101_03,,江木町東,,36.327714,139.022564,g101_03,,0,,
g102_01,,高関町,,36.327246,139.025644,g102_01,,0,,
g102_02,,高関町,,36.32734,139.025861,g102_02,,0,,
g103_01,,高関,,36.327001,139.027496,g103_01,,0,,
g103_02,,高関,,36.32716,139.027377,g103_02,,0,,
g104_01,,稲村クリニック前,,36.326264,139.033728,g104_01,,0,,
g104_02,,稲村クリニック前,,36.326396,139.033345,g104_02,,0,,
g105_01,,柳原,,36.32399,139.043815,g105_01,,0,,
g105_02,,柳原,,36.324522,139.042362,g105_02,,0,,
g106_01,,柴崎,,36.322129,139.047836,g106_01,,0,,
g106_02,,柴崎,,36.322249,139.047807,g106_02,,0,,
g107_01,,寄居,,36.319879,139.05717,g107_01,,0,,
g107_02,,寄居,,36.3202,139.055308,g107_02,,0,,
g107_03,,寄居,,36.320249,139.055539,g107_03,,0,,
g108_01,,下大類,,36.318757,139.063643,g108_01,,0,,
g108_02,,下大類,,36.31884,139.063699,g108_02,,0,,
g109_01,,綿貫入口,,36.318319,139.0663,g109_01,,0,,
g109_02,,綿貫入口,,36.318448,139.066041,g109_02,,0,,
g110_01,,慈眼寺裏,,36.320308,139.072061,g110_01,,0,,
g110_02,,慈眼寺裏,,36.320441,139.0718,g110_02,,0,,
g111_01,,上滝,,36.320069,139.074691,g111_01,,0,,
g111_02,,上滝,,36.320166,139.07454,g111_02,,0,,
g112_01,,榎町,,36.319125,139.083502,g112_01,,0,,
g112_02,,榎町,,36.319245,139.083467,g112_02,,0,,
g113_01,,板井団地入口,,36.317178,139.091972,g113_01,,0,,
g113_02,,板井団地入口,,36.317384,139.090798,g113_02,,0,,
g114_01,,板井,,36.316083,139.095841,g114_01,,0,,
g114_02,,板井,,36.316295,139.095491,g114_02,,0,,
g115_01,,辰巳,,36.314966,139.100622,g115_01,,0,,
g115_02,,辰巳,,36.315011,139.100146,g115_02,,0,,
g116_01,,斉田,,36.311691,139.106954,g116_01,,0,,
g116_02,,斉田,,36.311818,139.107018,g116_02,,0,,
g117_01,,玉村高校,,36.30497,139.106867,g117_01,,0,,
g117_02,,玉村高校,,36.304999,139.106964,g117_02,,0,,
g118_01,,四丁目角,,36.303133,139.107222,g118_01,,0,,
g118_02,,四丁目角,,36.303201,139.107452,g118_02,,0,,
g119_01,,玉村五丁目,,36.303052,139.109574,g119_01,,0,,
g119_02,,玉村五丁目,,36.303153,139.109436,g119_02,,0,,
g120_01,,玉村六丁目,,36.302965,139.112215,g120_01,,0,,
g120_02,,玉村六丁目,,36.30303,139.112533,g120_02,,0,,
g121_01,,玉村町役場南,,36.302901,139.115611,g121_01,,0,,
g121_02,,玉村町役場南,,36.302944,139.116031,g121_02,,0,,
g122_01,,県立女子大学,,36.298673,139.113797,g122_01,,0,,
g123_01,,矢中町入口,,36.320932,139.051122,g123_01,,0,,
g123_02,,矢中町入口,,36.321015,139.05114,g123_02,,0,,
g124_01,,玉村町役場入口,,36.303965,139.116721,g124_01,,0,,
g124_02,,玉村町役場入口,,36.303975,139.116625,g124_02,,0,,
g125_01,,福島,,36.307274,139.116706,g125_01,,0,,
g125_02,,福島,,36.307356,139.116822,g125_02,,0,,
g126_01,,福島公民館,,36.310915,139.119292,g126_01,,0,,
g126_02,,福島公民館,,36.310994,139.118448,g126_02,,0,,
g127_01,,福島橋,,36.31485,139.120474,g127_01,,0,,
g127_02,,福島橋,,36.315028,139.120276,g127_02,,0,,
g128_01,,玉村大橋北,,36.31595,139.126331,g128_01,,0,,
g128_02,,玉村大橋北,,36.31599,139.127708,g128_02,,0,,
g129_01,,上福島,,36.314817,139.132777,g129_01,,0,,
g129_02,,上福島,,36.314945,139.1328,g129_02,,0,,
g130_01,,森下,,36.31457,139.136098,g130_01,,0,,
g130_02,,森下,,36.314583,139.13697,g130_02,,0,,
g131_01,,岡本医院前,,36.314216,139.141406,g131_01,,0,,
g131_02,,岡本医院前,,36.314314,139.141271,g131_02,,0,,
g132_01,,西上の宮,,36.314109,139.144017,g132_01,,0,,
g132_02,,西上の宮,,36.314193,139.144217,g132_02,,0,,
g133_01,,上の宮,,36.31384,139.150023,g133_01,,0,,
g133_02,,上の宮,,36.313918,139.150771,g133_02,,0,,
g134_01,,東上の宮,,36.313599,139.156543,g134_01,,0,,
g134_02,,東上の宮,,36.313705,139.156517,g134_02,,0,,
g135_01,,田中神社,,36.313848,139.164251,g135_01,,0,,
g135_02,,田中神社,,36.313938,139.164225,g135_02,,0,,
g136_01,,連取十字路西,,36.313444,139.170473,g136_01,,0,,
g136_02,,連取十字路西,,36.314047,139.170381,g136_02,,0,,
g137_01,,連取,,36.314874,139.175126285714,g137_01,,0,,
g137_02,,連取,,36.314962,139.175065,g137_02,,0,,
g138_01,,宮郷第二小西,,36.318005,139.174617,g138_01,,0,,
g138_02,,宮郷第二小西,,36.318213,139.174685,g138_02,,0,,
g139_01,,連取町南,,36.321648,139.174489,g139_01,,0,,
g139_02,,連取町南,,36.321963,139.174449,g139_02,,0,,
g140_01,,若葉町,,36.321181,139.18592,g140_01,,0,,
g140_02,,若葉町,,36.32128,139.185991,g140_02,,0,,
g141_01,,伊勢崎郵便局前,,36.32037,139.190937,g141_01,,0,,
g141_02,,伊勢崎郵便局前,,36.320507,139.190831,g141_02,,0,,
g142_01,,本町二番,,36.320277,139.194066,g142_01,,0,,
g142_02,,本町二番,,36.320386,139.193486,g142_02,,0,,
g143_01,,信用金庫前,,36.321525,139.194705,g143_01,,0,,
g143_02,,信用金庫前,,36.321845,139.194771,g143_02,,0,,
g145_01,,伊勢崎駅前,,36.326463,139.194275,g145_01,,0,,
g146_01,,伊勢崎郵便局前三光町経由,,36.319846,139.191723,g146_01,,0,,
g147_01,,三光町,,36.317163,139.190603,g147_01,,0,,
g148_01,,永久橋西,,36.316852,139.186354,g148_01,,0,,
g149_01,,連取元町,,36.315505,139.179811,g149_01,,0,,
m002_01,,坂下,,36.389714,139.073155,m002_01,,0,,
m002_02,,坂下,,36.389767,139.073019,m002_02,,0,,
m003_01,,中央前橋駅前,,36.392176,139.074485,m003_01,,0,,
m003_02,,中央前橋駅前,,36.392197,139.074338,m003_02,,0,,
m004_01,,立川町通り東,,36.393066,139.072242,m004_01,,0,,
m004_02,,立川町通り東,,36.39321,139.072085,m004_02,,0,,
m005_01,,立川町通り西,,36.3937,139.06919,m005_01,,0,,
m005_02,,立川町通り西,,36.393759,139.069473,m005_02,,0,,
m006_01,,遊園地坂下,,36.394297,139.066092,m006_01,,0,,
m006_02,,遊園地坂下,,36.394304,139.066722,m006_02,,0,,
m007_01,,公社ビル入口,,36.394224,139.051887,m007_01,,0,,
m007_02,,公社ビル入口,,36.394383,139.051843,m007_02,,0,,
m008_01,,大渡温水プール前,,36.393366,139.047134,m008_01,,0,,
m008_02,,大渡温水プール前,,36.393463,139.046852,m008_02,,0,,
m009_01,,元総社二丁目,,36.393204,139.039186,m009_01,,0,,
m010_01,,問屋会館前,,36.395179,139.041172,m010_01,,0,,
m011_01,,老年病研究所前,,36.392878,139.042593,m011_01,,0,,
m011_02,,老年病研究所前,,36.392989,139.042492,m011_02,,0,,
m012_01,,マーキュリーホテル前,,36.391893,139.04334,m012_01,,0,,
m012_02,,マーキュリーホテル前,,36.392,139.043562,m012_02,,0,,
m013_01,,大友町,,36.390275,139.045029,m013_01,,0,,
m013_02,,大友町,,36.390432,139.045142,m013_02,,0,,
m014_01,,ＮＨＫ入口,,36.387828,139.045437,m014_01,,0,,
m014_02,,ＮＨＫ入口,,36.388277,139.045504,m014_02,,0,,
m015_01,,産業道路入口,,36.38741,139.044365,m015_01,,0,,
m015_02,,産業道路入口,,36.387511,139.044399,m015_02,,0,,
m016_01,,明神東,,36.387928,139.041732,m016_01,,0,,
m016_02,,明神東,,36.388199,139.040778,m016_02,,0,,
m017_01,,明神前,,36.388495,139.038256285714,m017_01,,0,,
m017_02,,明神前,,36.388577,139.038186,m017_02,,0,,
m018_01,,総社神社南,,36.385875,139.037586,m018_01,,0,,
m018_02,,総社神社南,,36.385876,139.037486,m018_02,,0,,
m019_01,,元総社,,36.385095,139.039108,m019_01,,0,,
m019_02,,元総社,,36.385168,139.039476,m019_02,,0,,
m020_01,,県民共済前,,36.383946,139.041983,m020_01,,0,,
m020_02,,県民共済前,,36.384077,139.041931,m020_02,,0,,
m021_01,,市町村会館前,,36.381907,139.044517,m021_01,,0,,
m021_02,,市町村会館前,,36.381977,139.044547,m021_02,,0,,
m022_01,,新前橋駅西口,,36.380089,139.047108,m022_01,,0,,
g153_01,,平和町,,36.324673,139.200093,g153_01,,0,,
g153_02,,平和町,,36.324703,139.201795,g153_02,,0,,
g154_01,,伊勢崎市文化会館,,36.325908,139.211048,g154_01,,0,,
g154_02,,伊勢崎市文化会館,,36.326016,139.210958,g154_02,,0,,
g155_01,,上諏訪町,,36.328869,139.217657,g155_01,,0,,
g155_02,,上諏訪町,,36.329058,139.217727,g155_02,,0,,
g156_01,,スマーク,,36.340431,139.231695,g156_01,,0,,
t001_01,,高崎駅東口,,36.321763,139.013695,t001_01,,0,,
t002_01,,税務署前,,36.326626,139.016406,t002_01,,0,,
t002_02,,税務署前,,36.326632,139.016502,t002_02,,0,,
t003_01,,江木十字路,,36.328048,139.018994,t003_01,,0,,
t003_02,,江木十字路,,36.328151,139.018912,t003_02,,0,,
t004_01,,江木町,,36.33052,139.019742,t004_01,,0,,
t004_02,,江木町,,36.330673,139.019674,t004_02,,0,,
t005_01,,希望館病院入口,,36.336516,139.019831,t005_01,,0,,
t005_02,,希望館病院入口,,36.336755,139.019719,t005_02,,0,,
t006_01,,高崎女子高校前,,36.339343,139.019525,t006_01,,0,,
t006_02,,高崎女子高校前,,36.339348,139.019642,t006_02,,0,,
t007_01,,高崎女子高校入口,,36.340269,139.019582,t007_01,,0,,
t007_02,問屋町駅方面,高崎女子高校入口,,36.340274,139.019448,t007_02,,0,,
t008_01,問屋町駅方面,天神町,,36.342254,139.019302,t008_01,,0,,
t008_02,,天神町,,36.342509,139.019382,t008_02,,0,,
t009_01,,高崎問屋町駅貝沢口,,36.345906,139.017483,t009_01,,0,,
t010_01,,貝沢町南,,36.339927,139.024034,t010_01,,0,,
t010_02,,貝沢町南,,36.339985,139.024036,t010_02,,0,,
t011_01,,東部小学校西,,36.341777,139.029587,t011_01,,0,,
t011_02,,東部小学校西,,36.341794,139.029511,t011_02,,0,,
t012_01,,高崎商業高校入口,,36.347139,139.031527,t012_01,,0,,
t012_02,,高崎商業高校入口,,36.347174,139.031599,t012_02,,0,,
t013_01,,東貝沢町四丁目,,36.351014,139.030156714286,t013_01,,0,,
t013_02,,東貝沢町四丁目,,36.351832,139.030046,t013_02,,0,,
t014_01,,井野町東,,36.353334,139.030893,t014_01,,0,,
t014_02,,井野町東,,36.353425,139.030885,t014_02,,0,,
t015_01,,変電所前,,36.35382,139.034116,t015_01,,0,,
t015_02,,変電所前,,36.353912,139.034275,t015_02,,0,,
t016_01,,松之木橋,,36.354275,139.039567,t016_01,,0,,
t016_02,,松之木橋,,36.354388,139.039833,t016_02,,0,,
t017_01,,中央中等教育学校前,,36.354275,139.04554,t017_01,,0,,
t017_02,,中央中等教育学校前,,36.354375,139.045621,t017_02,,0,,
t018_01,,群馬医療福祉大学入口,,36.353878,139.049379857143,t018_01,,0,,
t018_02,,群馬医療福祉大学入口,,36.35435,139.047702,t018_02,,0,,
t019_01,,育英短大前,,36.348787,139.051853,t019_01,,0,,
t019_02,,育英短大前,,36.3483,139.051613,t019_02,,0,,
t020_01,,上京目公民館前,,36.347313,139.058582,t020_01,,0,,
t020_02,,上京目公民館前,,36.347388,139.058575,t020_02,,0,,
t021_01,,大沢町,,36.349845,139.063769,t021_01,,0,,
t021_02,,大沢町,,36.349988,139.063477,t021_02,,0,,
t022_01,,萩原町中央公園前,,36.349447,139.068387,t022_01,,0,,
t022_02,,萩原町中央公園前,,36.349512,139.068098,t022_02,,0,,
t023_01,,萩原町,,36.34453,139.071818,t023_01,,0,,
t023_02,,萩原町,,36.344647,139.071702,t023_02,,0,,
t024_01,,萩原町南,,36.341332,139.071831,t024_01,,0,,
t024_02,,萩原町南,,36.34166,139.071744,t024_02,,0,,
t025_01,,京目町,,36.341212,139.064321,t025_01,,0,,
t025_02,,京目町,,36.341376,139.064232,t025_02,,0,,
t026_01,,群南団地,,36.341296,139.053838,t026_01,,0,,
t026_02,,群南団地,,36.341559,139.053259,t026_02,,0,,
t027_01,,西島町,,36.342069,139.047679,t027_01,,0,,
t027_02,,西島町,,36.342152,139.047793,t027_02,,0,,
t028_01,,島野町北,,36.346433,139.046301,t028_01,,0,,
t028_02,,島野町北,,36.346448,139.046168,t028_02,,0,,
t029_01,,新保町岡野,,36.347492,139.043438,t029_01,,0,,
t029_02,,新保町岡野,,36.347585,139.043448,t029_02,,0,,
t030_01,,ひよこ保育園前,,36.348315,139.038008,t030_01,,0,,
t030_02,,ひよこ保育園前,,36.348398,139.038239,t030_02,,0,,
t031_01,,新保町西,,36.345357,139.037567,t031_01,,0,,
t031_02,,新保町西,,36.345543,139.037646,t031_02,,0,,
t032_01,,東貝沢町一丁目,,36.341658,139.034501,t032_01,,0,,
t032_02,,東貝沢町一丁目,,36.341769,139.034641,t032_02,,0,,
t033_01,,東部小学校前,,36.34089,139.03093,t033_01,,0,,
t033_02,,東部小学校前,,36.340984,139.030794,t033_02,,0,,
t034_01,,上大類町東,,36.337054,139.030347,t034_01,,0,,
t034_02,,上大類町東,,36.337293,139.030368,t034_02,,0,,
t035_01,,上大類町,,36.333167,139.031463,t035_01,,0,,
t035_02,,上大類町,,36.333693,139.031225,t035_02,,0,,
t036_01,,南大類町西,,36.330293,139.031979,t036_01,,0,,
t036_02,,南大類町西,,36.330316,139.031912,t036_02,,0,,
t037_01,,中央病院入口,,36.326909,139.032512,t037_01,,0,,
t037_02,,中央病院入口,,36.326914,139.03243,t037_02,,0,,
t038_01,,城東小学校前,,36.32566,139.020008,t038_01,,0,,
t038_02,,城東小学校前,,36.325777,139.020063,t038_02,,0,,
t039_01,,岩押町,,36.322711,139.020268,t039_01,,0,,
t039_02,,岩押町,,36.322737,139.020193,t039_02,,0,,
t040_01,高崎駅方面,栄町北,,36.321923,139.017387,t040_01,,0,,
t040_02,,栄町北,,36.322202,139.017009,t040_02,,0,,
t041_01,,岩押郵便局前,,36.321883,139.02154,t041_01,,0,,
t041_02,,岩押郵便局前,,36.322104,139.02142,t041_02,,0,,
t042_01,,上中居町西,,36.321701,139.024688,t042_01,,0,,
t042_02,,上中居町西,,36.321913,139.02466,t042_02,,0,,
t043_01,,上中居町北,,36.321346,139.029945,t043_01,,0,,
t043_02,,上中居町北,,36.321583,139.029884,t043_02,,0,,
t044_01,,上中居町,,36.321204,139.033753,t044_01,,0,,
t044_02,,上中居町,,36.321427,139.033582,t044_02,,0,,
t045_01,,中居町一丁目,,36.321101,139.039489,t045_01,,0,,
t045_02,,中居町一丁目,,36.321248,139.039657,t045_02,,0,,
t046_01,,大類公民館入口,,36.320982,139.043152,t046_01,,0,,
t046_02,,大類公民館入口,,36.321152,139.043894,t046_02,,0,,
t047_01,,高崎健康福祉大学,,36.323316,139.059335,t047_01,,0,,
t048_01,,高崎東高校入口,,36.324866,139.060065,t048_01,,0,,
t048_02,,高崎東高校入口,,36.324996,139.060072,t048_02,,0,,
t049_01,,元島名公民館前,,36.328544,139.061953,t049_01,,0,,
t049_02,,元島名公民館前,,36.328579,139.062082,t049_02,,0,,
t050_01,,元島名町,,36.331832,139.063627,t050_01,,0,,
t050_02,,元島名町,,36.332451,139.063776,t050_02,,0,,
t051_01,,島野町南,,36.334082,139.065937,t051_01,,0,,
t051_02,,島野町南,,36.334153,139.065905,t051_02,,0,,
t052_01,,将軍塚工業団地,,36.330603,139.071285,t052_01,,0,,
t052_02,,将軍塚工業団地,,36.330723,139.07123,t052_02,,0,,
t053_01,,西横手町,,36.329977,139.074541,t053_01,,0,,
t053_02,,西横手町,,36.330147,139.074643,t053_02,,0,,
t054_01,,宿横手団地入口,,36.327467,139.080338,t054_01,,0,,
t054_02,,宿横手団地入口,,36.327648,139.080351,t054_02,,0,,
t055_01,,中島団地入口,,36.32355,139.082188,t055_01,,0,,
t055_02,,中島団地入口,,36.323649,139.082109,t055_02,,0,,
t056_01,,滝川郵便局入口,,36.318505,139.083071,t056_01,,0,,
t056_02,,滝川郵便局入口,,36.318625,139.082986,t056_02,,0,,
t057_01,,下滝町,,36.311813,139.085582,t057_01,,0,,
t057_02,,下滝町,,36.312036,139.0856,t057_02,,0,,
t058_01,,下斎田町,,36.305541,139.088552,t058_01,,0,,
t058_02,,下斎田町,,36.305858,139.088352,t058_02,,0,,
t059_01,,八幡原公民館前,,36.299963,139.091031,t059_01,,0,,
t059_02,,八幡原公民館前,,36.3000339999998,139.091049571429,t059_02,,0,,
t060_01,,八幡原町,,36.302164,139.088299,t060_01,,0,,
t060_02,,八幡原町,,36.302222,139.088447,t060_02,,0,,
t061_01,,綿貫町,,36.304046,139.081433,t061_01,,0,,
t062_01,,綿貫団地南,,36.303318,139.077712,t062_01,,0,,
t062_02,,綿貫団地南,,36.303398,139.077665809525,t062_02,,0,,
t063_01,,高崎量子応用研究所,,36.300987,139.074299,t063_01,,0,,
t063_02,,高崎量子応用研究所,,36.30112,139.074406,t063_02,,0,,
t064_01,,群馬の森,,36.297845,139.075505,t064_01,,0,,
t065_01,,台新田町,,36.300172,139.071068,t065_01,,0,,
t065_02,,台新田町,,36.300259,139.071112,t065_02,,0,,
t066_01,,岩鼻小学校前,,36.301986,139.069679,t066_01,,0,,
t066_02,,岩鼻小学校前,,36.30204,139.069418,t066_02,,0,,
t067_01,,栗崎町,,36.303385,139.066125,t067_01,,0,,
t067_02,,栗崎町,,36.303489,139.066086,t067_02,,0,,
t068_01,,岩鼻長寿センター前,,36.305969,139.059845,t068_01,,0,,
t068_02,,岩鼻長寿センター前,,36.30609,139.059812,t068_02,,0,,
t069_01,,ハーモニー高崎ケアセンター,,36.306953,139.061193,t069_01,,0,,
t070_01,,高等特別支援学校前,,36.312331,139.060505,t070_01,,0,,
t071_01,,アピタ高崎店前,,36.3102,139.054118,t071_01,,0,,
t071_02,,アピタ高崎店前,,36.310361,139.054063714286,t071_02,,0,,
t072_01,,ヘルスパーククリニック前,,36.31136,139.049389,t072_01,,0,,
t072_02,,ヘルスパーククリニック前,,36.311457,139.049471857143,t072_02,,0,,
t073_01,,中居団地東,,36.314606,139.046783,t073_01,,0,,
t073_02,,中居団地東,,36.31524,139.046954,t073_02,,0,,
t074_01,,中居町二丁目,,36.316681,139.045983,t074_01,,0,,
t074_02,,中居町二丁目,,36.31676,139.04583,t074_02,,0,,
t075_01,,中居小学校前,,36.315546,139.040892,t075_01,,0,,
t075_02,,中居小学校前,,36.315658,139.040941,t075_02,,0,,
t076_01,,中居小学校南,,36.314856,139.039203,t076_01,,0,,
t076_02,,中居小学校南,,36.314982,139.039268,t076_02,,0,,
t077_01,,上中居町東,,36.316827,139.033592,t077_01,,0,,
t077_02,,上中居町東,,36.316992,139.033515,t077_02,,0,,
t078_01,,上中居郵便局前,,36.317014,139.029593,t078_01,,0,,
t078_02,,上中居郵便局前,,36.317146,139.02959,t078_02,,0,,
t079_01,,佐野中学校前,,36.317251,139.02504,t079_01,,0,,
t079_02,,佐野中学校前,,36.317378,139.02419,t079_02,,0,,
t080_01,,双葉町,,36.317518,139.019462,t080_01,,0,,
t080_02,,双葉町,,36.317607,139.019586,t080_02,,0,,
t081_01,,北双葉町,,36.320337,139.018944,t081_01,,0,,
t081_02,,北双葉町,,36.320563,139.019101,t081_02,,0,,
t082_01,,ぐんまの森クリニック前,,36.303326,139.085731,t082_01,,0,,
t082_02,,ぐんまの森クリニック前,,36.303306,139.085844,t082_02,,0,,
